{
  "data": [
    {
      "latitude": -7.63911,
      "longitude": 111.51474,
      "type": "venue",
      "distance": 0.181,
      "name": "Aston Madiun Hotel And Conference Center",
      "number": null,
      "postal_code": null,
      "street": null,
      "confidence": 0.7,
      "region": "East Java",
      "region_code": "JI",
      "county": "Madiun",
      "locality": "Madiun",
      "administrative_area": null,
      "neighbourhood": null,
      "country": "Indonesia",
      "country_code": "IDN",
      "continent": "Asia",
      "label": "Aston Madiun Hotel And Conference Center, Madiun, JI, Indonesia"
    },
    {
      "latitude": -7.639522,
      "longitude": 111.51397,
      "type": "venue",
      "distance": 0.274,
      "name": "Hotel Aston",
      "number": null,
      "postal_code": null,
      "street": null,
      "confidence": 0.6,
      "region": "East Java",
      "region_code": "JI",
      "county": "Madiun",
      "locality": "Madiun",
      "administrative_area": null,
      "neighbourhood": null,
      "country": "Indonesia",
      "country_code": "IDN",
      "continent": "Asia",
      "label": "Hotel Aston, Madiun, JI, Indonesia"
    },
    {
      "latitude": -7.635609,
      "longitude": 111.519955,
      "type": "venue",
      "distance": 0.536,
      "name": "SMA Gamaliel",
      "number": null,
      "postal_code": null,
      "street": null,
      "confidence": 0.6,
      "region": "East Java",
      "region_code": "JI",
      "county": "Madiun",
      "locality": "Madiun",
      "administrative_area": null,
      "neighbourhood": null,
      "country": "Indonesia",
      "country_code": "IDN",
      "continent": "Asia",
      "label": "SMA Gamaliel, Madiun, JI, Indonesia"
    },
    {
      "latitude": -7.633801,
      "longitude": 111.514693,
      "type": "venue",
      "distance": 0.591,
      "name": "Rumah Makan BOOM",
      "number": null,
      "postal_code": null,
      "street": null,
      "confidence": 0.6,
      "region": "East Java",
      "region_code": "JI",
      "county": "Madiun",
      "locality": "Madiun",
      "administrative_area": null,
      "neighbourhood": null,
      "country": "Indonesia",
      "country_code": "IDN",
      "continent": "Asia",
      "label": "Rumah Makan BOOM, Madiun, JI, Indonesia"
    },
    {
      "latitude": -7.632664,
      "longitude": 111.517351,
      "type": "venue",
      "distance": 0.697,
      "name": "PERPUSTAKAAN KOTA",
      "number": null,
      "postal_code": null,
      "street": "Jalan Kyai Haji Agus Salim",
      "confidence": 0.6,
      "region": "East Java",
      "region_code": "JI",
      "county": "Madiun",
      "locality": "Madiun",
      "administrative_area": null,
      "neighbourhood": null,
      "country": "Indonesia",
      "country_code": "IDN",
      "continent": "Asia",
      "label": "PERPUSTAKAAN KOTA, Madiun, JI, Indonesia"
    },
    {
      "latitude": -7.631749,
      "longitude": 111.517332,
      "type": "venue",
      "distance": 0.798,
      "name": "SMPN 2",
      "number": null,
      "postal_code": null,
      "street": null,
      "confidence": 0.6,
      "region": "East Java",
      "region_code": "JI",
      "county": "Madiun",
      "locality": "Madiun",
      "administrative_area": null,
      "neighbourhood": null,
      "country": "Indonesia",
      "country_code": "IDN",
      "continent": "Asia",
      "label": "SMPN 2, Madiun, JI, Indonesia"
    },
    {
      "latitude": -7.632722,
      "longitude": 111.512181,
      "type": "venue",
      "distance": 0.823,
      "name": "Rumah Sakit Islam Aisyah Madiun",
      "number": null,
      "postal_code": null,
      "street": "Jalan Mayjend. Sungkono",
      "confidence": 0.6,
      "region": "East Java",
      "region_code": "JI",
      "county": "Madiun",
      "locality": "Madiun",
      "administrative_area": null,
      "neighbourhood": null,
      "country": "Indonesia",
      "country_code": "IDN",
      "continent": "Asia",
      "label": "Rumah Sakit Islam Aisyah Madiun, Madiun, JI, Indonesia"
    },
    {
      "latitude": -7.631417,
      "longitude": 111.517598,
      "type": "venue",
      "distance": 0.839,
      "name": "Klepon Ijo Madiun",
      "number": null,
      "postal_code": null,
      "street": null,
      "confidence": 0.6,
      "region": "East Java",
      "region_code": "JI",
      "county": "Madiun",
      "locality": "Madiun",
      "administrative_area": null,
      "neighbourhood": null,
      "country": "Indonesia",
      "country_code": "IDN",
      "continent": "Asia",
      "label": "Klepon Ijo Madiun, Madiun, JI, Indonesia"
    },
    {
      "latitude": -7.631342,
      "longitude": 111.517231,
      "type": "venue",
      "distance": 0.841,
      "name": "Pasar Kawak",
      "number": null,
      "postal_code": null,
      "street": null,
      "confidence": 0.6,
      "region": "East Java",
      "region_code": "JI",
      "county": "Madiun",
      "locality": "Madiun",
      "administrative_area": null,
      "neighbourhood": null,
      "country": "Indonesia",
      "country_code": "IDN",
      "continent": "Asia",
      "label": "Pasar Kawak, Madiun, JI, Indonesia"
    },
    {
      "latitude": -7.631015,
      "longitude": 111.519027,
      "type": "venue",
      "distance": 0.921,
      "name": "Brownies Amanda",
      "number": null,
      "postal_code": null,
      "street": null,
      "confidence": 0.6,
      "region": "East Java",
      "region_code": "JI",
      "county": "Madiun",
      "locality": "Madiun",
      "administrative_area": null,
      "neighbourhood": null,
      "country": "Indonesia",
      "country_code": "IDN",
      "continent": "Asia",
      "label": "Brownies Amanda, Madiun, JI, Indonesia"
    }
  ]
}
